stop_id,stop_name,stop_desc,stop_lat,stop_lon,zone_id,stop_url,location_type,parent_station
1,喜沢循環0戸田公園駅西口,,35.80772919,139.6777357,,,0,
2,喜沢循環1戸田公園駅北,,35.80871762,139.6767377,,,0,
3,喜沢循環2こどもの国,,35.80934302,139.6792192,,,0,
4,喜沢循環3戸田中央総合病院,,35.81112674,139.6794603,,,0,
5,喜沢循環4上戸田二丁目,,35.8143819,139.6791888,,,0,
6,喜沢循環5戸田市役所南,,35.81646598,139.6792366,,,0,
7,喜沢循環6上戸田稲荷,,35.81702694,139.6825217,,,0,
8,喜沢循環7中島病院,,35.81460515,139.6836771,,,0,
9,喜沢循環8戸田東中学校北,,35.81473249,139.6866508,,,0,
10,喜沢循環9中町一丁目北,,35.81356657,139.6904381,,,0,
11,喜沢循環10中町公園,,35.81306471,139.6920711,,,0,
12,喜沢循環11カリン通り,,35.81519143,139.6940287,,,0,
13,喜沢循環12とだ小林医院,,35.81400922,139.6954165,,,0,
14,喜沢循環13喜沢一丁目,,35.81314174,139.695538,,,0,
15,喜沢循環14喜沢記念会館,,35.81162608,139.6956671,,,0,
16,喜沢循環15喜沢小学校南,,35.81048235,139.6969892,,,0,
17,喜沢循環16アリスの広場東,,35.80900853,139.6970745,,,0,
18,喜沢循環17喜沢橋,,35.80694702,139.696238,,,0,
19,喜沢循環18喜沢南一丁目,,35.80638436,139.6965025,,,0,
20,喜沢循環19喜沢中学校,,35.80653138,139.6941928,,,0,
21,喜沢循環20喜沢南二丁目,,35.80712984,139.6917873,,,0,
22,喜沢循環21中町多目的広場,,35.80755545,139.6898645,,,0,
23,喜沢循環22こぶし公園前,,35.80707787,139.6894378,,,0,
24,喜沢循環23障害者福祉会館北,,35.80612853,139.6878278,,,0,
25,喜沢循環24戸田南小学校南,,35.80560525,139.6820931,,,0,
26,川岸循環0戸田公園西口,,35.8077683,139.6776462,,,0,
27,川岸循環1戸田公園駅北,,35.80861869,139.6766631,,,0,
28,川岸循環2こどもの国,,35.80940945,139.6792739,,,0,
29,川岸循環3戸田中央総合病院,,35.81119719,139.6794533,,,0,
30,川岸循環4戸田第一小学校,,35.81285675,139.6776076,,,0,
31,川岸循環5後谷会館,,35.81445034,139.6774326,,,0,
32,川岸循環6戸田市役所,,35.81766674,139.6770936,,,0,
33,川岸循環7蕨警察署南,,35.81991897,139.6785511,,,0,
34,川岸循環8市民活動支援センター入口,,35.81699967,139.678981,,,0,
35,川岸循環9上戸田稲荷,,35.81700807,139.6825132,,,0,
36,川岸循環10中島病院,,35.81455137,139.683788,,,0,
37,川岸循環11戸田東中学校北,,35.81472966,139.6867861,,,0,
38,川岸循環12戸田東小学校,,35.81272681,139.6882305,,,0,
39,川岸循環13中町二丁目,,35.81136207,139.6893703,,,0,
40,川岸循環14正覚院前,,35.81021904,139.6906604,,,0,
41,川岸循環15中町多目的広場北,,35.80871843,139.6898153,,,0,
42,川岸循環16こぶし公園前,,35.80697931,139.6894148,,,0,
43,川岸循環17川岸二丁目,,35.80529477,139.6880543,,,0,
44,川岸循環18障害者福祉会館前,,35.80512219,139.6866939,,,0,
45,川岸循環19川岸会館前,,35.80436895,139.6864239,,,0,
46,川岸循環20川岸南,,35.80293284,139.687502,,,0,
47,川岸循環21川岸一丁目,,35.80286411,139.6857058,,,0,
48,川岸循環22ボートコース入口,,35.80300001,139.6814822,,,0,
49,西循環0下笹目,,35.8147447,139.643688,,,0,
50,西循環1笹目,,35.81321688,139.6459876,,,0,
51,西循環2笹目東小学校入口,,35.81363725,139.6506537,,,0,
52,西循環3公平病院,,35.81308642,139.6524542,,,0,
53,西循環4笹目南町,,35.81118973,139.6533432,,,0,
54,西循環5新曽氷川神社,,35.81045875,139.6561078,,,0,
55,西循環6氷川町一丁目,,35.81033853,139.6588533,,,0,
56,西循環7氷川町,,35.81131988,139.6613289,,,0,
57,西循環8新曽小学校,,35.80964203,139.6632413,,,0,
58,西循環9新曽保育園,,35.8090544,139.6651726,,,0,
59,西循環10新曽南一丁目,,35.80858838,139.6686848,,,0,
60,西循環11浅間橋,,35.8078027,139.6697875,,,0,
61,西循環12本町三丁目,,35.80756322,139.6731321,,,0,
62,西循環13戸田公園駅西口,,35.80758705,139.6775466,,,0,
63,西循環14本町三丁目,,35.80735837,139.6733492,,,0,
64,西循環15浅間橋,,35.80760296,139.6702623,,,0,
65,西循環16新曽南一丁目,,35.80841177,139.6686149,,,0,
66,西循環17馬場,,35.80978648,139.6673744,,,0,
67,西循環18二枚橋,,35.81088361,139.6677183,,,0,
68,西循環19新曽柳原,,35.81282136,139.6682999,,,0,
69,西循環20沖内,,35.81533015,139.6685816,,,0,
70,西循環21戸田駅,,35.81781424,139.6692279,,,0,
71,西循環22健康福祉の杜,,35.82157967,139.6727362,,,0,
72,西循環23戸田翔陽高校,,35.81814942,139.6668157,,,0,
73,西循環24スポーツセンター,,35.82196342,139.664812,,,0,
74,西循環25図書館・博物館,,35.81926202,139.6642235,,,0,
75,西循環26図書館南,,35.8183732,139.6630203,,,0,
76,西循環27新曽芦原,,35.81839977,139.6595587,,,0,
77,西循環28境橋,,35.81823689,139.6573228,,,0,
78,西循環29笹目一丁目,,35.81803443,139.6550535,,,0,
79,西循環30笹目二丁目,,35.81643945,139.6538288,,,0,
80,西循環31児童センター,,35.81591622,139.6523499,,,0,
81,西循環32笹目コミュニティセンター,,35.81561654,139.6494119,,,0,
82,西循環33ささめ幼稚園,,35.81551065,139.6464554,,,0,
83,南西循環0下笹目,,35.81494433,139.643517,,,0,
84,南西循環1下町橋,,35.81270569,139.6445065,,,0,
85,南西循環2笹目公園,,35.81153585,139.6428773,,,0,
86,南西循環3笹目七丁目,,35.80975452,139.6425579,,,0,
87,南西循環4早瀬公園,,35.80620131,139.6454774,,,0,
88,南西循環5早瀬二丁目,,35.80387284,139.647373,,,0,
89,南西循環6早瀬会館,,35.80318225,139.6515292,,,0,
90,南西循環7戸田公園大橋,,35.80625419,139.6574727,,,0,
91,南西循環8下町さくら西ひろば,,35.8069689,139.6621472,,,0,
92,南西循環9金森橋,,35.80660151,139.6668128,,,0,
93,南西循環10新曽南三丁目,,35.80552964,139.6673542,,,0,
94,南西循環11南町,,35.80514572,139.6716268,,,0,
95,南西循環12上戸田南保育園,,35.8047974,139.6762417,,,0,
96,南西循環13戸田公園駅西口,,35.80758097,139.6776794,,,0,
97,南西循環14本町五丁目,,35.80428774,139.6792777,,,0,
98,南西循環15ボートコース入口,,35.80303538,139.6816443,,,0,
99,南西循環16県営戸田公園,,35.80153866,139.6771522,,,0,
100,南西循環17旭が丘,,35.80111247,139.6799261,,,0,
101,南西循環18ボートコース入口,,35.80293065,139.6815132,,,0,
102,南西循環19戸田公園駅南,,35.80561997,139.6776406,,,0,
103,南西循環20上戸田南保育園,,35.80468533,139.6759618,,,0,
104,南西循環21南町,,35.80504059,139.6711654,,,0,
105,南西循環22新曽南三丁目,,35.80540895,139.6663237,,,0,
106,南西循環23給食センター入口,,35.80579337,139.6613499,,,0,
107,南西循環24戸田公園大橋,,35.80606363,139.6576606,,,0,
108,南西循環25笹目川排水機場,,35.8023303,139.6528277,,,0,
109,南西循環26早瀬二丁目,,35.80398231,139.6472029,,,0,
110,南西循環27聖橋,,35.80929421,139.6479768,,,0,
111,南西循環28笹目六丁目,,35.8128292,139.6463462,,,0,
112,美笹循環0下笹目,,35.81490037,139.6435795,,,0,
113,美笹循環1ささめ幼稚園,,35.81566131,139.6463484,,,0,
114,美笹循環2笹目コミュニティセンター,,35.81560919,139.6492782,,,0,
115,美笹循環3最勝寺,,35.81748512,139.6472301,,,0,
116,美笹循環4市民医療センター,,35.82100674,139.6455122,,,0,
117,美笹循環5山宮,,35.81974604,139.6475605,,,0,
118,美笹循環6笹目四丁目,,35.81851445,139.6493913,,,0,
119,美笹循環7惣右衛門公園,,35.8196692,139.6525206,,,0,
120,美笹循環8谷口,,35.82053172,139.6547952,,,0,
121,美笹循環9笹目北町,,35.82162724,139.6547481,,,0,
122,美笹循環10北部公園西,,35.8251528,139.6545634,,,0,
123,美笹循環11北部公園野球場,,35.82565579,139.6563351,,,0,
124,美笹循環12北戸田駅,,35.82773218,139.6594019,,,0,
125,美笹循環13北部公園野球場,,35.82550551,139.655959,,,0,
126,美笹循環14美女木東一丁目,,35.82553255,139.653378,,,0,
127,美笹循環15南陵高校,,35.8245862,139.6504425,,,0,
128,美笹循環16美女木小学校入口,,35.82949483,139.6464226,,,0,
129,美笹循環17新田公園,,35.82754485,139.6446992,,,0,
130,美笹循環18藪雨,,35.82604736,139.6420267,,,0,
131,美笹循環19美女木二丁目,,35.82835305,139.640591,,,0,
132,美笹循環20美女木一丁目,,35.82932094,139.640689,,,0,
133,美笹循環21美女木一丁目会館,,35.83047737,139.6396378,,,0,
134,美笹循環22美女木一丁目西,,35.83054329,139.636687,,,0,
135,美笹循環23美女木,,35.82834347,139.6393287,,,0,
136,美笹循環24番匠免,,35.82883798,139.6339753,,,0,
137,美笹循環25道満,,35.82646211,139.6338227,,,0,
138,美笹循環26堀之内,,35.82492431,139.635689,,,0,
139,美笹循環27修行目,,35.82178544,139.6384733,,,0,
140,美笹循環28美笹支所,,35.82086703,139.6422396,,,0,
141,美笹循環29天王,,35.81898343,139.6436184,,,0,
142,美笹循環30天王公園,,35.81694482,139.6419348,,,0,
